ʚ⸮⸮r⸮ʺ⸮⸮b⸮⸮221430.01,A,A*7E
$GPRMC,221431.00,A,1636.89505,N,09305.39668,W,0.973,,121121,,,A*66
$GPVTG,,T,,M,0.973,N,1.802,K,A*25
$GPGGA,221431.00,1636.89505,N,09305.39668,W,1,04,4.18,441.6,M,-7.5,M,,*56
$GPGSA,A,3,22,03,04,16,,,,,,,,,8.14,4.18,6.98*05
$GPGSV,2,1,07,03,57,270,44,04,33,334,43,09,,,30,16,82,040,39*47
$GPGSV,2,2,07,21,,,20,22,54,227,41,51,65,221,45*7B
$GPGLL,1636.89505,N,09305.39668,W,221431.00,A,A*72
$GPRMC,221432.00,A,1636.89500,N,09305.39672,W,0.318,,121121,,,A*6C
$GPVTG,,T,,M,0.318,N,0.588,K,A*2C
$GPGGA,221432.00,1636.89500,N,09305.39672,W,1,04,4.18,440.6,M,-7.5,M,,*5A
$GPGSA,A,3,22,03,04,16,,,,,,,,,8.14,4.18,6.98*05
$GPGSV,2,1,06,03,57,270,43,04,33,334,42,09,,,30,16,82,040,37*4E
$GPGSV,2,2,06,22,54,227,41,51,65,221,44*7A
$GPGLL,1636.89500,N,09305.39672,W,221432.00,A,A*7F
$GPRMC,221433.00,A,1636.89504,N,09305.39689,W,0.160,,121121,,,A*60
$GPVTG,,T,,M,0.160,N,0.297,K,A*28
$GPGGA,221433.00,1636.89504,N,09305.39689,W,1,04,4.18,440.5,M,-7.5,M,,*58
$GPGSA,A,3,22,03,04,16,,,,,,,,,8.14,4.18,6.98*05
$GPGSV,2,1,06,03,57,270,42,04,33,334,40,09,,,30,16,82,040,37*4D
$GPGSV,2,2,06,22,54,227,39,51,65,221,42*73
$GPGLL,1636.89504,N,09305.39689,W,221433.00,A,A*7E
$GPRMC,221434.00,A,1636.89508,N,09305.39700,W,0.159,,121121,,,A*61
$GPVTG,,T,,M,0.159,N,0.295,K,A*20
$GPGGA,221434.00,1636.89508,N,09305.39700,W,1,04,4.18,440.5,M,-7.5,M,,*53
$GPGSA,A,3,22,03,04,16,,,,,,,,,8.13,4.18,6.98*02
$GPGSV,2,1,08,03,57,270,44,04,33,334,42,09,,,34,16,82,040,38*4C
$GPGSV,2,2,08,22,54,227,41,24,,,27,27,,,33,51,65,221,44*72
$GPGLL,1636.89508,N,09305.39700,W,221434.00,A,A*75
$GPRMC,221435.00,A,1636.89509,N,09305.39726,W,0.157,,121121,,,A*6B
$GPVTG,,T,,M,0.157,N,0.291,K,A*2A
$GPGGA,221435.00,1636.89509,N,09305.39726,W,1,04,4.18,440.3,M,-7.5,M,,*51
$GPGSA,A,3,22,03,04,16,,,,,,,,,8.13,4.18,6.98*02
$GPGSV,3,1,09,03,57,270,45,04,33,334,42,09,,,34,16,82,040,39*4C
$GPGSV,3,2,09,19,,,24,22,54,227,41,25,,,25,27,,,32*48
$GPGSV,3,3,09,51,65,221,44*46
$GPGLL,1636.89509,N,09305.39726,W,221435.00,A,A*71
$GPRMC,221436.00,A,1636.89508,N,09305.39729,W,0.035,,121121,,,A*63
$GPVTG,,T,,M,0.035,N,0.064,K,A*27
$GPGGA,221436.00,1636.89508,N,09305.39729,W,1,04,4.18,440.4,M,-7.5,M,,*5B
$GPGSA,A,3,22,03,04,16,,,,,,,,,8.13,4.18,6.98*02
$GPGSV,2,1,08,03,57,270,44,04,33,334,41,09,,,33,16,82,040,39*49
$GPGSV,2,2,08,19,,,22,22,54,227,40,27,,,35,51,65,221,43*79
$GPGLL,1636.89508,N,09305.39729,W,221436.00,A,A*7C
$GPRMC,221437.00,A,1636.89509,N,09305.39740,W,0.464,,121121,,,A*6C
$GPVTG,,T,,M,0.464,N,0.859,K,A*21
$GPGGA,221437.00,1636.89509,N,09305.39740,W,1,04,4.18,440.6,M,-7.5,M,,*56
$GPGSA,A,3,22,03,04,16,,,,,,,,,8.13,4.18,6.98*02
$GPGSV,2,1,08,03,57,270,42,04,33,334,40,09,,,32,16,82,040,37*41
$GPGSV,2,2,08,19,,,19,22,54,227,39,27,,,34,51,65,221,42*7F
$GPGLL,1636.89509,N,09305.39740,W,221437.00,A,A*73
$GPRMC,221438.00,A,1636.89519,N,09305.39753,W,0.618,,121121,,,A*69
$GPVTG,,T,,M,0.618,N,1.144,K,A*2C
$GPGGA,221438.00,1636.89519,N,09305.39753,W,1,04,4.18,441.3,M,-7.5,M,,*5E
$GPGSA,A,3,22,03,04,16,,,,,,,,,8.13,4.18,6.97*0D
$GPGSV,2,1,08,03,57,270,43,04,33,334,42,09,,,33,16,82,040,39*4D
$GPGSV,2,2,08,19,,,17,22,54,227,39,27,,,31,51,65,221,43*75
$GPGLL,1636.89519,N,09305.39753,W,221438.00,A,A*7F
$GPRMC,221439.00,A,1636.89527,N,09305.39773,W,0.632,,121121,,,A*6F
$GPVTG,,T,,M,0.632,N,1.170,K,A*23
$GPGGA,221439.00,1636.89527,N,09305.39773,W,1,04,4.18,441.8,M,-7.5,M,,*5B
$GPGSA,A,3,22,03,04,16,,,,,,,,,8.13,4.18,6.97*0D
$GPGSV,2,1,08,03,57,270,38,04,33,334,38,09,,,31,16,82,040,36*41
$GPGSV,2,2,08,19,,,12,22,54,227,35,27,,,31,51,65,221,39*71
$GPGLL,1636.89527,N,09305.39773,W,221439.00,A,A*71
$GPRMC,221440.00,A,1636.89526,N,09305.39786,W,0.635,,121121,,,A*6D
$GPVTG,,T,,M,0.635,N,1.177,K,A*23
$GPGGA,221440.00,1636.89526,N,09305.39786,W,1,04,4.18,442.2,M,-7.5,M,,*57
$GPGSA,A,3,22,03,04,16,,,,,,,,,8.13,4.18,6.97*0D
$GPGSV,2,1,08,03,57,270,44,04,33,334,42,09,,,31,16,82,040,38*49
$GPGSV,2,2,08,19,,,10,22,54,227,39,27,,,34,51,65,221,44*70
$GPGLL,1636.89526,N,09305.39786,W,221440.00,A,A*74